[
  {
    "name": "Green Thumb Montgomery",
    "address": "88 Oak Park Dr, Montgomery AL",
    "lat": 32.365,
    "lng": -86.279,
    "category": "landscaping",
    "website": "greenthumbmgm.com"
  },
  {
    "name": "Capital City Caterers",
    "address": "210 Dexter Ave, Montgomery AL",
    "lat": 32.379,
    "lng": -86.307,
    "category": "catering",
    "website": "capitalcitycatering.com"
  },
  {
    "name": "Montgomery IT Solutions",
    "address": "400 Bell St, Montgomery AL",
    "lat": 32.37,
    "lng": -86.295,
    "category": "it_services",
    "website": "mgmit.com"
  },
  {
    "name": "River Region Plumbing",
    "address": "752 Madison Ave, Montgomery AL",
    "lat": 32.361,
    "lng": -86.284,
    "category": "plumbing",
    "website": "riverregionplumbing.com"
  },
  {
    "name": "East Side Electrical",
    "address": "1800 Atlanta Hwy, Montgomery AL",
    "lat": 32.381,
    "lng": -86.262,
    "category": "electrical",
    "website": "eastsideelectrical.com"
  },
  {
    "name": "Bama Builders LLC",
    "address": "325 Mobile Rd, Montgomery AL",
    "lat": 32.348,
    "lng": -86.301,
    "category": "construction",
    "website": "bamabuilders.com"
  },
  {
    "name": "Clean Team Janitorial",
    "address": "560 Eastern Blvd, Montgomery AL",
    "lat": 32.352,
    "lng": -86.272,
    "category": "janitorial",
    "website": "cleanteammgm.com"
  },
  {
    "name": "Montgomery Security Pro",
    "address": "980 Norman Bridge Rd, Montgomery AL",
    "lat": 32.341,
    "lng": -86.289,
    "category": "security",
    "website": "mgmsecurity.com"
  },
  {
    "name": "Honest Grounds Landscaping",
    "address": "100 Fairview Ave, Montgomery AL",
    "lat": 32.374,
    "lng": -86.298,
    "category": "landscaping",
    "website": "honestgrounds.com"
  },
  {
    "name": "Midtown Media Group",
    "address": "240 Commerce St, Montgomery AL",
    "lat": 32.376,
    "lng": -86.31,
    "category": "media",
    "website": "midtownmedia.com"
  },
  {
    "name": "Capitol Pest Control",
    "address": "88 Clayton St, Montgomery AL",
    "lat": 32.37,
    "lng": -86.303,
    "category": "pest_control",
    "website": "capitolpest.com"
  },
  {
    "name": "Southern Comfort HVAC",
    "address": "1204 Coliseum Blvd, Montgomery AL",
    "lat": 32.389,
    "lng": -86.265,
    "category": "hvac",
    "website": "southerncomforthvac.com"
  },
  {
    "name": "Bama Roofing Pros",
    "address": "77 McLemore Ave, Montgomery AL",
    "lat": 32.355,
    "lng": -86.294,
    "category": "roofing",
    "website": "bamaroofingpros.com"
  },
  {
    "name": "Family First Catering",
    "address": "300 Hall St, Montgomery AL",
    "lat": 32.368,
    "lng": -86.314,
    "category": "catering",
    "website": "familyfirstcatering.com"
  },
  {
    "name": "Veteran's Tech Consulting",
    "address": "1501 Federal Dr, Montgomery AL",
    "lat": 32.384,
    "lng": -86.302,
    "category": "it_services",
    "website": "vettechconsult.com"
  },
  {
    "name": "Bright Connections Electric",
    "address": "820 W South Blvd, Montgomery AL",
    "lat": 32.334,
    "lng": -86.303,
    "category": "electrical",
    "website": "brightconnections.com"
  },
  {
    "name": "Oak Street Grounds",
    "address": "14 Oak St, Montgomery AL",
    "lat": 32.363,
    "lng": -86.281,
    "category": "landscaping",
    "website": "oakstreetgrounds.com"
  },
  {
    "name": "Monument Staffing",
    "address": "401 Adams Ave, Montgomery AL",
    "lat": 32.376,
    "lng": -86.306,
    "category": "staffing",
    "website": "monumentstaffing.com"
  },
  {
    "name": "Gulf States Construction",
    "address": "620 S Lawrence St, Montgomery AL",
    "lat": 32.358,
    "lng": -86.298,
    "category": "construction",
    "website": "gulfstatesconstruction.com"
  },
  {
    "name": "Pixel Perfect Printing",
    "address": "45 N Ripley St, Montgomery AL",
    "lat": 32.375,
    "lng": -86.299,
    "category": "printing",
    "website": "pixelperfectprint.com"
  }
]